Project Name,Category,Latitude,Longitude,Screen Size,Image URL
Times Square Mega Screen,Retail,40.7580,-73.9855,1500 sq ft,https://images.unsplash.com/photo-1557053503-0c252e5c8093?auto=format&fit=crop&w=400&q=80
Wembley Stadium Ring,Stadium,51.5560,-0.2795,500m Circumference,https://images.unsplash.com/photo-1522778119026-d647f0565c6a?auto=format&fit=crop&w=400&q=80
Tokyo Tech Tower,Corporate,35.6895,139.6917,200 sq m,https://images.unsplash.com/photo-1542051841857-5f90071e7989?auto=format&fit=crop&w=400&q=80
Dubai Mall Entrance,Retail,25.1972,55.2744,800 sq ft,https://images.unsplash.com/photo-1512453979798-5ea90b792d50?auto=format&fit=crop&w=400&q=80
Allianz Arena Wall,Stadium,48.2188,11.6247,2000 sq m,https://images.unsplash.com/photo-1470723710355-171b4ca50d55?auto=format&fit=crop&w=400&q=80
Sydney Opera House Projection,Corporate,-33.8568,151.2153,Custom Projection,https://images.unsplash.com/photo-1624138784180-40c4eceacd89?auto=format&fit=crop&w=400&q=80
